City_ID,City,Lat,Lng,Max Temp,Humidity,Cloudiness,Wind Speed,Country,Date
0,ushuaia,-54.8,-68.3,278.96,75,75,12.86,AR,1733008699
1,wacheng,33.7833,114.5167,280.02,55,0,3.33,CN,1733008700
2,bethel,41.3712,-73.414,273.65,64,88,0.89,US,1733008702
3,yellowknife,62.456,-114.3525,255.68,78,100,3.6,CA,1733008703
4,hotan,37.0997,79.9269,273.05,48,99,1.44,CN,1733008704
5,saint-philippe,-21.3585,55.7679,297.09,79,36,3.15,RE,1733008705
6,hamilton,39.1834,-84.5333,274.31,51,100,4.12,US,1733008700
7,angra do heroismo,38.65,-27.2167,288.49,82,40,4.81,PT,1733008707
8,port-aux-francais,-49.35,70.2167,279.17,94,85,12.22,TF,1733008709
9,edinburgh of the seven seas,-37.0676,-12.3116,290.13,96,100,12.66,SH,1733008710
10,iqaluit,63.7506,-68.5145,267.0,68,75,5.14,CA,1733008711
11,vorgashor,67.5833,63.95,263.59,95,100,5.37,RU,1733008712
12,constantia,44.1833,28.65,277.53,73,98,9.59,RO,1733008713
13,iskateley,67.6803,53.1512,268.43,79,62,10.52,RU,1733008714
14,mejit,10.2753,170.8646,301.03,82,100,10.8,MH,1733008715
15,kailua-kona,19.6406,-155.9956,300.68,79,100,4.12,US,1733008511
16,port alfred,-33.5906,26.891,289.92,92,80,0.45,ZA,1733008718
17,novotroitskaya,45.3267,41.5253,273.96,83,28,2.84,RU,1733008719
18,puerto natales,-51.7236,-72.4875,281.06,65,55,5.09,CL,1733008567
19,baloda bazar,21.6667,82.1667,292.16,85,99,2.59,IN,1733008721
20,dudinka,69.4058,86.1778,262.27,76,100,12.86,RU,1733008723
21,west island,-12.1568,96.8225,299.14,94,20,2.06,CC,1733008724
22,bako,5.7833,36.5667,291.41,75,54,1.72,ET,1733008725
23,waitangi,-43.9535,-176.5597,284.92,76,7,11.72,NZ,1733008726
24,colonia,50.9333,6.95,276.62,80,0,3.6,DE,1733008549
25,grytviken,-54.2811,-36.5092,275.19,76,44,4.66,GS,1733008617
26,torghay,49.6339,63.4981,270.67,67,90,3.15,KZ,1733008730
27,xai-xai,-25.0519,33.6442,292.94,76,0,3.02,MZ,1733008731
28,udachny,66.4167,112.4,238.35,100,88,1.26,RU,1733008732
29,thinadhoo,0.5333,72.9333,300.58,77,88,9.25,MV,1733008733
30,hun,29.1268,15.9477,288.72,32,1,2.99,LY,1733008734
31,adamstown,-25.066,-130.1015,296.3,81,83,6.9,PN,1733008735
32,klyuchi,52.2667,79.1667,258.06,96,33,1.59,RU,1733008737
33,porangatu,-13.4408,-49.1486,296.9,90,99,1.35,BR,1733008738
34,okhotsk,59.3833,143.3,267.52,80,100,5.12,RU,1733008739
35,san antonio de pale,-1.4014,5.6325,299.4,85,100,3.72,GQ,1733008740
36,papatowai,-46.5619,169.4708,289.87,43,31,5.61,NZ,1733008741
37,invercargill,-46.4,168.35,288.72,72,12,5.36,NZ,1733008742
38,minot air force base,48.4209,-101.3391,259.25,66,75,3.6,US,1733008743
39,zhob,31.3411,69.4481,284.02,43,32,0.93,PK,1733008744
40,tahoua,14.8888,5.2692,292.42,19,84,5.32,NE,1733008690
41,tsiombe,-25.3,45.4833,293.49,77,1,2.03,MG,1733008747
42,i-n-salah,27.1935,2.4607,289.25,27,0,4.95,DZ,1733008749
43,tobruk,32.0836,23.9764,289.88,52,0,6.82,LY,1733008750
44,howrah,22.5892,88.3103,293.15,88,40,0.0,IN,1733008751
45,qaqortoq,60.7167,-46.0333,264.91,62,100,4.39,GL,1733008752
46,pitimbu,-7.4706,-34.8086,298.23,72,68,3.64,BR,1733008753
47,walvis bay,-22.9575,14.5053,288.68,87,2,1.43,NA,1733008755
48,bengkulu,-3.8004,102.2655,298.17,86,100,1.28,ID,1733008756
49,palikir - national government center,6.9248,158.1611,303.62,66,100,7.2,FM,1733008757
50,ulladulla,-35.35,150.4667,299.33,54,90,1.85,AU,1733008758
51,aasiaat,68.7098,-52.8699,253.2,99,94,2.24,GL,1733008759
52,ribeira grande,38.5167,-28.7,289.14,81,65,0.89,PT,1733008760
53,zaozersk,69.4005,32.4476,266.38,86,78,9.17,RU,1733008761
54,seropedica,-22.7439,-43.7075,295.82,98,100,1.48,BR,1733008762
55,dunedin,-45.8742,170.5036,289.29,55,18,3.66,NZ,1733008537
56,rongelap,11.1635,166.8941,301.3,80,68,10.95,MH,1733008765
57,blackmans bay,-43.0167,147.3167,295.78,78,73,2.24,AU,1733008766
58,ranau,5.9538,116.6641,294.52,89,100,0.9,MY,1733008767
59,antsiranana,-12.2787,49.2917,297.49,87,99,0.76,MG,1733008768
60,mata-utu,-13.2816,-176.1745,300.93,76,77,2.96,WF,1733008769
61,bikenibeu village,1.3673,173.1241,303.13,70,20,5.66,KI,1733008770
62,hawaiian paradise park,19.5933,-154.9731,299.88,68,40,3.6,US,1733008771
63,yemva,62.59,50.8594,266.24,94,76,2.68,RU,1733008773
64,bathsheba,13.2167,-59.5167,299.49,83,40,4.12,BB,1733008774
65,san fernando,15.0286,120.6898,298.0,85,100,2.21,PH,1733008474
66,fort mcmurray,56.7268,-111.381,253.92,77,100,1.54,CA,1733008908
67,avarua,-21.2078,-159.775,300.18,61,75,6.17,CK,1733008777
68,lensk,60.7253,114.9278,244.62,100,95,1.34,RU,1733008778
69,olonkinbyen,70.9221,-8.7187,262.46,63,100,6.84,SJ,1733008780
70,huron,41.1501,-82.5499,268.66,67,18,4.96,US,1733008781
71,fale old settlement,-9.3852,-171.2468,302.0,64,80,7.27,TK,1733008782
72,aioun,16.6614,-9.6149,295.33,13,1,5.02,MR,1733008784
73,georgetown,5.4112,100.3354,298.12,89,20,1.03,MY,1733008678
74,harper,4.375,-7.7169,299.32,84,16,3.05,LR,1733008786
75,prudentopolis,-25.2131,-50.9778,296.0,82,100,0.5,BR,1733008788
76,sitka,57.0531,-135.33,272.09,47,0,2.57,US,1733008789
77,jalai nur,49.45,117.7,260.31,94,100,6.36,CN,1733008790
78,san patricio,28.017,-97.5169,291.12,62,100,4.09,US,1733008791
79,stanley,54.868,-1.6985,284.0,91,72,6.74,GB,1733008792
80,naze,28.3667,129.4833,289.66,74,27,1.79,JP,1733008793
81,st. john's,47.5649,-52.7093,276.92,95,100,3.09,CA,1733008690
82,fortuna,40.5982,-124.1573,285.92,74,0,2.57,US,1733008796
83,okha,53.5739,142.9478,271.2,95,98,1.62,RU,1733008797
84,adrar,20.5022,-10.0711,292.23,19,54,5.18,MR,1733008798
85,geraldton,-28.7667,114.6,295.38,68,75,5.14,AU,1733008756
86,laguna,38.421,-121.4238,288.25,54,0,0.0,US,1733008800
87,quatre cocos,-20.2078,57.7625,297.21,74,2,3.32,MU,1733008801
88,port elizabeth,-33.918,25.5701,291.1,92,40,1.54,ZA,1733008803
89,byron bay,-28.65,153.6167,296.51,92,100,5.39,AU,1733009140
90,lihue,21.9789,-159.3672,299.92,71,0,3.6,US,1733009141
91,port douglas,-16.4833,145.4667,301.06,75,72,1.03,AU,1733009142
92,altai,46.3722,96.2583,261.19,68,71,1.22,MN,1733009143
93,tiksi,71.6872,128.8694,248.08,100,80,1.99,RU,1733009144
94,quang ngai,15.1167,108.8,293.04,89,93,1.52,VN,1733009145
95,ashkasham,36.6833,71.5333,262.02,85,72,1.68,AF,1733009147
96,castillos,-34.1667,-53.8333,288.28,74,5,2.9,UY,1733009148
97,jacobina,-11.1806,-40.5183,299.87,49,100,2.89,BR,1733009149
98,thompson,55.7435,-97.8558,260.24,78,100,3.6,CA,1733009150
99,nemuro,43.3236,145.575,275.04,68,3,6.44,JP,1733009151
100,maridi,4.9158,29.4742,294.03,51,74,0.35,SS,1733009152
101,ariquemes,-9.9133,-63.0408,299.27,80,86,1.47,BR,1733009085
102,bilibino,68.0546,166.4372,255.36,99,100,1.47,RU,1733009154
103,ilulissat,69.2167,-51.1,248.64,81,9,2.95,GL,1733009084
104,punta arenas,-53.15,-70.9167,281.21,71,40,9.77,CL,1733009157
105,salekhard,66.53,66.6019,266.01,84,100,4.8,RU,1733009158
106,college,64.8569,-147.8028,252.29,76,100,3.09,US,1733008871
107,andergrove,-21.0833,149.1833,299.64,79,21,2.12,AU,1733009160
108,pemangkat,1.1667,108.9667,298.9,88,90,1.83,ID,1733009161
109,dalandzadgad,43.5708,104.425,265.74,71,76,9.47,MN,1733009162
110,kruisfontein,-34.0033,24.7314,287.61,87,43,2.88,ZA,1733009163
111,kodiak,57.79,-152.4072,273.88,80,100,3.09,US,1733009165
112,gao,16.6362,1.637,292.4,18,0,4.86,ML,1733009166
113,colombo,6.9319,79.8478,300.15,82,88,6.89,LK,1733009140
114,chonchi,-42.6128,-73.8092,287.66,68,84,2.09,CL,1733009168
115,tofol,5.3248,163.0078,300.79,78,97,6.66,FM,1733009169
116,hithadhoo,-0.6,73.0833,299.8,83,100,8.82,MV,1733009170
117,zeya,53.75,127.2667,256.84,94,100,0.92,RU,1733009171
118,isafjordur,66.0755,-23.124,265.38,85,98,12.05,IS,1733009172
119,margaret river,-33.95,115.0667,290.26,69,84,5.4,AU,1733009174
120,hermanus,-34.4187,19.2345,287.48,78,81,3.85,ZA,1733009175
121,talnakh,69.4865,88.3972,262.56,72,100,9.03,RU,1733009176
122,hasaki,35.7333,140.8333,286.65,49,1,3.76,JP,1733009177
123,salinera colan,-5.0333,-81.0667,295.22,76,60,7.29,PE,1733009178
124,jamestown,42.097,-79.2353,267.6,71,20,6.69,US,1733009179
125,ulsteinvik,62.3432,5.8487,284.22,88,100,5.42,NO,1733009180
126,wailua homesteads,22.0669,-159.378,299.59,77,0,3.6,US,1733009181
127,trevelin,-43.0858,-71.4639,287.07,55,1,4.23,AR,1733009183
128,ras al khaimah city,25.7895,55.9432,294.48,52,0,1.96,AE,1733009185
129,volovets,48.7109,23.1851,274.75,96,30,1.66,UA,1733009186
130,salinopolis,-0.6136,-47.3561,300.18,81,4,3.95,BR,1733009187
131,ordynskoye,54.3656,81.8994,257.38,98,39,2.32,RU,1733009188
132,haiku-pauwela,20.9219,-156.3051,300.16,66,20,9.83,US,1733009189
133,amalapuram,16.5833,82.0167,297.89,87,100,4.46,IN,1733009191
134,chibougamau,49.9168,-74.3659,266.94,93,100,2.06,CA,1733009192
135,xinghua,32.9392,119.8342,280.71,65,31,3.07,CN,1733009193
136,masterton,-40.9597,175.6575,295.61,52,13,2.63,NZ,1733009194
137,goure,13.9835,10.2704,290.05,22,52,4.41,NE,1733009195
138,sao gabriel da cachoeira,-0.1303,-67.0892,299.9,66,58,1.17,BR,1733009196
139,san jose de jachal,-30.2406,-68.7469,299.63,37,0,4.76,AR,1733009197
140,kone,-21.0595,164.8658,305.37,40,1,1.14,NC,1733009199
141,ratnagiri,16.9833,73.3,295.55,53,100,1.75,IN,1733009200
142,petropavlovsk-kamchatsky,53.0452,158.6483,273.48,100,75,2.0,RU,1733009201
143,vadso,70.0744,29.7487,268.24,74,89,10.29,NO,1733009202
144,new norfolk,-42.7826,147.0587,296.44,63,94,2.98,AU,1733009203
145,carnarvon,-24.8667,113.6333,296.07,73,56,6.61,AU,1733009204
146,howard springs,-12.497,131.047,301.97,93,100,1.6,AU,1733009205
147,codrington,-38.2667,141.9667,288.55,95,100,5.56,AU,1733009206
148,buala,-8.145,159.5921,301.88,74,100,0.88,SB,1733009208
149,highfields,-27.4518,151.9463,293.91,95,100,2.72,AU,1733009209
150,eastham,41.8301,-69.9739,276.16,58,0,2.06,US,1733009210
151,lompoc,34.6391,-120.4579,295.94,44,0,1.54,US,1733009211
152,ponta delgada,37.7333,-25.6667,291.59,72,20,2.06,PT,1733009212
153,khon kaen,16.5,102.0833,290.09,85,51,0.43,TH,1733009213
154,la punta,-33.1837,-66.3127,292.54,84,100,0.32,AR,1733009214
155,puerto ayora,-0.7393,-90.3518,295.35,78,84,5.67,EC,1733009215
156,bonthe,7.5264,-12.505,299.68,77,6,2.09,SL,1733009217
157,cabo san lucas,22.8909,-109.9124,298.57,66,0,3.6,MX,1733009218
158,mogocha,53.7333,119.7667,246.55,96,35,1.8,RU,1733009219
159,sarvar,47.2539,16.9352,274.19,89,40,1.45,HU,1733009220
160,ujae,8.9322,165.7642,301.3,79,100,11.79,MH,1733009221
161,anadyr,64.75,177.4833,272.43,80,40,11.0,RU,1733009222
162,utrik,11.2278,169.8474,301.07,81,84,11.41,MH,1733009224
163,malaya vishera,58.8454,32.2222,276.55,91,100,6.13,RU,1733009226
164,nadym,65.5333,72.5167,265.53,95,100,7.41,RU,1733009227
165,albany,42.6001,-73.9662,272.38,68,100,0.89,US,1733009192
166,mo i rana,66.3128,14.1428,271.66,87,100,0.0,NO,1733009215
167,richards bay,-28.783,32.0377,291.71,86,3,2.38,ZA,1733009230
168,bykhaw,53.5193,30.2469,271.1,97,64,2.5,BY,1733009231
169,ternate,0.8,127.4,299.98,82,100,1.95,ID,1733009232
170,santa elena de uairen,4.6167,-61.1333,296.24,63,88,1.48,VE,1733009233
171,alice springs,-23.7,133.8833,302.9,45,40,6.17,AU,1733009235
172,whitehorse,60.7161,-135.0538,247.05,75,20,3.6,CA,1733009236
173,rajaori,33.3833,74.3,283.63,30,0,2.45,IN,1733009237
174,enewetak,11.3474,162.3373,301.29,80,100,9.98,MH,1733009238
175,egilsstadir,65.2653,-14.3948,270.1,93,100,11.83,IS,1733009239
176,priozersk,61.0393,30.1291,278.76,87,100,8.53,RU,1733009240
177,takoradi,4.8845,-1.7554,299.93,77,25,2.45,GH,1733009241
178,mariental,-24.6333,17.9667,298.22,10,0,0.77,NA,1733009243
179,el bolson,-41.9667,-71.5167,287.2,63,2,3.04,AR,1733009244
180,bredasdorp,-34.5322,20.0403,290.5,71,79,2.12,ZA,1733009246
181,sonqor,34.7837,47.6004,273.12,63,0,1.95,IR,1733009247
182,bangui,4.3612,18.555,296.67,50,15,0.76,CF,1733009248
183,katsuura,35.1333,140.3,285.11,64,0,5.25,JP,1733009249
184,port mathurin,-19.6833,63.4167,297.46,80,94,8.31,MU,1733009250
185,ancud,-41.8697,-73.8203,285.39,70,20,5.52,CL,1733009252
186,quellon,-43.1167,-73.6167,284.74,76,95,1.07,CL,1733009196
187,bomi,7.2461,-11.5258,298.17,87,5,0.81,SL,1733009254
188,portland,45.5234,-122.6762,282.03,72,75,0.45,US,1733009255
189,yeppoon,-23.1333,150.7333,300.66,68,35,2.88,AU,1733009256
190,akureyri,65.6835,-18.0878,268.11,86,100,8.75,IS,1733009257
191,luderitz,-26.6481,15.1594,291.28,56,1,9.23,NA,1733009258
192,ad dabbah,18.05,30.95,289.65,33,6,4.71,SD,1733009259
193,pimentel,-6.8367,-79.9342,295.31,73,0,8.75,PE,1733009262
194,rabo de peixe,37.8,-25.5833,290.92,99,20,2.06,PT,1733009263
195,pontianak,-0.0333,109.3333,297.14,94,75,2.06,ID,1733009264
196,pajara,28.3504,-14.1076,291.88,33,100,2.52,ES,1733009265
197,kargil,34.5667,76.1,267.34,61,39,1.73,IN,1733009266
198,minas de marcona,-15.2119,-75.1103,289.62,83,67,6.57,PE,1733009268
199,flying fish cove,-10.4217,105.6791,301.02,81,99,4.94,CX,1733009270
200,papao,-17.75,-149.55,302.97,73,44,2.06,PF,1733009271
201,pamandzi,-12.7967,45.2794,301.03,78,40,4.12,YT,1733009272
202,larache,35.1932,-6.1557,294.1,55,97,2.96,MA,1733009273
203,zinjibar,13.1287,45.3807,298.74,67,43,2.19,YE,1733009274
204,urangan,-25.3,152.9,298.49,80,38,5.68,AU,1733009276
205,severo-yeniseyskiy,60.3725,93.0408,251.74,94,22,1.64,RU,1733009277
206,kourou,5.1552,-52.6478,297.18,93,29,2.99,GF,1733009278
207,kalach-na-donu,48.691,43.5264,272.14,87,90,1.59,RU,1733009279
208,horncastle,53.2077,-0.1172,284.39,100,40,5.14,GB,1733009280
209,santa ana de yacuma,-13.75,-65.4333,303.12,74,75,3.09,BO,1733009281
210,george town,5.4112,100.3354,298.12,89,20,1.03,MY,1733008547
211,ulysses,37.5814,-101.3552,283.17,27,0,0.0,US,1733009284
212,daru,-9.0763,143.2092,302.38,72,100,1.44,PG,1733009285
213,argo,37.6333,22.7333,284.8,80,68,2.04,GR,1733009286
214,dadukou,26.5479,101.7054,281.94,87,27,0.61,CN,1733009287
215,san pedro pochutla,15.7333,-96.4667,302.99,59,0,1.82,MX,1733009288
216,kerikeri,-35.2268,173.9474,293.1,69,100,3.13,NZ,1733009289
217,pont rouge,48.8833,-72.0825,267.91,87,100,2.26,CA,1733009290
218,puerto santa,-8.9906,-78.6456,293.31,84,59,5.1,PE,1733009291
219,weno,7.4515,151.8468,304.12,70,40,5.66,FM,1733009293
220,grootfontein,-19.5667,18.1167,294.91,24,2,1.54,NA,1733009294
221,jenbach,47.4013,11.7406,268.85,62,0,2.63,AT,1733009295
222,margate,51.3813,1.3862,283.64,88,0,0.45,GB,1733009101
223,stony plain,53.5334,-114.0021,256.34,83,100,2.57,CA,1733009297
224,live oak,36.9836,-121.9805,294.61,44,0,1.54,US,1733009298
225,prado,-17.3411,-39.2208,298.61,83,86,6.87,BR,1733009299
226,avsallar,36.616,31.7806,287.11,76,6,1.81,TR,1733009300
227,bekondo,4.6819,9.3214,295.97,80,2,1.48,CM,1733009302
228,puerto deseado,-47.7503,-65.8938,292.71,28,29,15.08,AR,1733009303
229,shostka,51.863,33.4698,273.85,90,100,2.0,UA,1733009304
230,sola,-13.8833,167.55,300.54,77,20,4.19,VU,1733009305
231,mungwi,-10.1732,31.3694,289.63,93,92,1.6,ZM,1733009306
232,gueret,46.1667,1.8667,280.47,97,19,1.41,FR,1733009307
233,mossel bay,-34.1831,22.146,289.11,74,34,1.43,ZA,1733009309
234,paredon,16.0333,-93.8667,302.92,49,0,5.65,MX,1733009310
235,saipan,15.1355,145.701,302.54,84,40,7.72,MP,1733009311
236,taltal,-25.4,-70.4833,291.82,74,28,2.7,CL,1733009312
237,guerrero negro,27.9769,-114.0611,297.43,32,100,3.83,MX,1733009313
238,lodwar,3.1191,35.5973,302.68,42,39,1.3,KE,1733009314
239,longyearbyen,78.2186,15.6401,264.06,53,20,5.66,SJ,1733009315
240,kapa'a,22.0752,-159.319,300.33,75,0,3.6,US,1733009316
241,kingston,17.997,-76.7936,301.68,84,40,4.12,JM,1733009142
242,tazovsky,67.4667,78.7,264.02,92,100,9.06,RU,1733009319
243,rio grande,-32.035,-52.0986,291.41,72,0,5.0,BR,1733009320
244,tra mhor,52.1624,-7.1524,286.33,99,100,4.47,IE,1733009321
245,niagara falls,43.1001,-79.0663,272.53,64,100,6.69,CA,1733009322
246,kidal,18.4411,1.4078,292.4,15,5,3.93,ML,1733009323
247,tongchuan,35.0806,109.0897,275.98,37,0,2.18,CN,1733009325
248,ambodifotatra,-16.9833,49.85,298.7,78,31,2.72,MG,1733009326
249,hyesan,41.4017,128.1778,264.18,92,92,0.51,KP,1733009327
250,ouarzazat,30.9189,-6.8934,287.31,33,40,1.03,MA,1733009328
251,igarka,67.4667,86.5833,262.09,77,100,11.55,RU,1733009329
252,kofele,7.0667,38.7833,281.09,60,91,3.18,ET,1733009330
253,nova sintra,14.8667,-24.7167,299.62,69,55,7.02,CV,1733009331
254,la palma,33.8464,-118.0467,298.36,24,75,4.63,US,1733009332
255,mili,6.0815,171.735,300.89,79,96,6.54,MH,1733009334
256,eyl,7.9803,49.8164,298.0,75,43,7.54,SO,1733009335
257,gadzhiyevo,69.2551,33.3362,265.45,88,82,8.96,RU,1733009336
258,plettenberg bay,-34.0527,23.3716,288.78,85,42,2.04,ZA,1733009337
259,sinop,41.7711,34.8709,274.37,78,54,3.02,TR,1733009338
260,atafu village,-8.5421,-172.5159,301.77,68,100,7.43,TK,1733009339
261,kindu,-2.95,25.95,294.23,99,92,1.01,CD,1733009340
262,kristinestad,62.2743,21.376,278.76,93,92,6.76,FI,1733009341
263,selfoss,63.9331,-20.9971,268.19,61,1,7.95,IS,1733009343
264,chui,-33.6971,-53.4616,289.23,73,11,3.37,UY,1733009344
265,alta,69.9689,23.2717,269.37,77,75,6.71,NO,1733009345
266,port arthur,38.8,121.2667,279.27,59,100,4.36,CN,1733009346
267,mbaiki,3.8678,17.9892,295.87,49,16,0.81,CF,1733009347
268,kievka,50.2619,71.5514,271.69,98,100,2.23,KZ,1733009348
269,badger,64.8,-147.5333,252.24,80,0,3.09,US,1733009349
270,kokshetau,53.2775,69.3883,257.62,97,72,2.0,KZ,1733009350
271,fray luis a. beltran,-32.7912,-60.7282,295.3,68,0,4.12,AR,1733009352
272,pisco,-13.7,-76.2167,294.18,83,0,9.26,PE,1733009341
273,port lincoln,-34.7333,135.8667,291.74,65,9,3.17,AU,1733009354
274,moose jaw,50.4001,-105.5344,254.29,84,98,4.63,CA,1733009164
275,anta,25.15,76.3,287.91,42,0,1.14,IN,1733009356
276,puerto aysen,-45.4,-72.7,283.06,95,93,2.74,CL,1733009350
277,las tablas,7.7667,-80.2833,300.47,99,78,0.85,PA,1733009358
278,arraial do cabo,-22.9661,-42.0278,297.0,93,100,3.28,BR,1733009359
279,monywa,22.1167,95.1333,293.31,75,55,2.75,MM,1733009361
280,uturoa,-16.7333,-151.4333,300.64,72,77,2.47,PF,1733009362
281,whistler,50.1164,-122.9695,274.72,100,100,0.0,CA,1733009131
282,lebu,-37.6167,-73.65,286.96,73,37,6.58,CL,1733009364
283,remire-montjoly,4.9167,-52.2667,300.17,83,20,1.54,GF,1733009365
284,tarawa,1.419,172.984,303.2,70,20,5.66,KI,1733009369
285,cockburn town,21.4612,-71.1419,300.37,84,20,4.9,TC,1733009370
286,laranjeiras do sul,-25.4078,-52.4161,295.76,88,100,1.52,BR,1733009371
287,kapuskasing,49.4169,-82.4331,266.2,100,75,3.09,CA,1733009372
288,clarksville,36.5298,-87.3595,277.18,65,20,2.06,US,1733009243
289,ust-nera,64.5667,143.2,248.99,100,77,0.95,RU,1733009374
290,sovetskaya gavan',48.9723,140.2878,269.72,59,100,6.72,RU,1733009375
291,tidjikja,18.5564,-11.4271,293.88,16,9,5.5,MR,1733009376
292,kiffa,16.6166,-11.4045,296.84,12,1,5.12,MR,1733009378
293,alofi,-19.0595,-169.9187,300.09,83,75,6.69,NU,1733009379
294,ar ruways,24.1103,52.7306,294.35,62,0,8.05,AE,1733009380
295,angaur state,6.906,134.13,302.39,75,65,5.69,PW,1733009381
296,huarmey,-10.0681,-78.1522,294.12,83,59,4.55,PE,1733009382
297,newman,37.3138,-121.0208,289.7,38,33,1.85,US,1733009153
298,itapetininga,-23.5917,-48.0531,295.26,92,92,5.21,BR,1733009385
299,lautoka,-17.6167,177.4667,303.07,66,40,4.12,FJ,1733009386
300,balsas,-7.5325,-46.0356,302.59,43,88,1.99,BR,1733009387
301,acapulco de juarez,16.8634,-99.8901,302.05,74,0,4.63,MX,1733009388
302,mount isa,-20.7333,139.5,304.02,58,2,2.57,AU,1733009389
303,shahrud,36.4182,54.9763,273.01,60,0,3.38,IR,1733009390
304,tura,25.5198,90.2201,288.8,78,50,1.62,IN,1733009391
305,masku,60.5708,22.0988,278.33,87,100,5.14,FI,1733009392
306,cefalu,38.0386,14.0229,282.79,68,52,2.29,IT,1733009394
307,mount gambier,-37.8333,140.7667,288.74,97,100,2.82,AU,1733009395
308,viana,-20.3903,-40.4961,299.02,99,100,1.4,BR,1733009396
309,luganville,-15.5333,167.1667,301.44,74,36,2.24,VU,1733009397
310,broken hill,-31.95,141.4333,297.05,39,0,1.81,AU,1733009398
311,nguigmi,14.2495,13.1092,291.8,27,5,5.45,NE,1733009399
312,kodinsk,58.6881,99.1844,249.28,100,42,0.58,RU,1733009400
313,dedougou,12.4667,-3.4667,293.46,21,4,3.21,BF,1733009401
314,forbes,-33.3833,148.0167,299.51,54,90,6.47,AU,1733009403
315,concepcion del oro,24.6333,-101.4167,288.26,31,82,2.19,MX,1733009404
316,zhelezinka,53.54,75.3072,256.03,98,68,1.91,KZ,1733009406
317,at-bashi,41.1702,75.8106,267.54,75,82,0.74,KG,1733009407
318,ta`u,-14.2336,-169.5144,301.14,73,94,6.44,AS,1733009408
319,kuta,-8.7233,115.1723,298.12,100,75,2.57,ID,1733009409
320,crucecita,-28.95,-58.9833,298.52,75,56,4.65,AR,1733009411
321,manokwari,-0.8667,134.0833,302.48,65,94,2.12,ID,1733009412
322,reshetylivka,49.565,34.0782,271.64,95,31,2.55,UA,1733009413
323,kristiansund,63.1115,7.732,283.78,81,75,3.09,NO,1733009414
324,itaberai,-16.0203,-49.8103,293.63,93,100,1.14,BR,1733009415
325,altay,47.8667,88.1167,264.69,75,80,2.7,CN,1733009416
326,kalemie,-5.9475,29.1947,294.31,89,100,1.66,CD,1733009153
327,artesia,33.8658,-118.0831,297.71,28,75,1.54,US,1733009247
328,vilyuchinsk,52.9306,158.4028,274.3,98,100,2.1,RU,1733009422
329,hollister,36.8525,-121.4016,293.65,36,0,3.09,US,1733009181
330,sierra vista,31.5545,-110.3037,294.48,21,0,2.57,US,1733009424
331,revda,56.801,59.9303,269.86,93,96,4.48,RU,1733009425
332,viedma,-40.8135,-62.9967,293.94,39,37,10.39,AR,1733009164
333,ola,59.5833,151.2833,270.07,78,100,6.36,RU,1733009427
334,ploudalmezeau,48.5333,-4.65,287.36,93,100,6.17,FR,1733009430
335,ketchikan,55.3422,-131.6461,274.14,74,0,2.57,US,1733009432
336,novodvinsk,64.4165,40.8122,267.01,85,100,3.31,RU,1733009433
337,santana,-0.0583,-51.1817,303.25,66,0,5.14,BR,1733009434
338,debre werk',10.6667,38.1667,286.27,68,56,0.17,ET,1733009435
339,suva,-18.1416,178.4415,300.86,78,75,4.63,FJ,1733009436
340,callao,-12.0667,-77.15,297.44,83,75,6.17,PE,1733009438
341,dadeldhura,29.2984,80.5806,281.86,81,0,1.99,NP,1733009439
342,dame-marie,18.5667,-74.4167,299.57,86,58,3.5,HT,1733009440
343,tindouf,27.6711,-8.1474,288.4,31,0,2.06,DZ,1733009441
344,al kharj,24.155,47.3346,286.47,37,0,3.28,SA,1733009442
345,gray,35.4167,-100.802,284.04,38,0,1.94,US,1733009443
346,susuman,62.7833,148.1667,258.26,97,100,1.09,RU,1733009446
347,belle fourche,44.6714,-103.8522,275.88,83,100,1.73,US,1733009447
348,karatau,43.1667,70.4667,277.55,93,100,0.52,KZ,1733009448
349,hadibu,12.65,54.0333,297.99,75,70,4.52,YE,1733009449
350,francistown,-21.17,27.5079,291.93,45,1,3.75,BW,1733009450
351,"poblacion, san felipe",14.5665,121.0308,298.68,94,100,1.03,PH,1733009451
352,namibe,-15.1961,12.1522,294.5,81,33,1.96,AO,1733009452
353,chegdomyn,51.1167,133.0167,259.08,94,99,0.45,RU,1733009454
354,tir pul,34.5943,61.269,276.35,71,28,10.19,AF,1733009455
355,sihanoukville,10.6093,103.5296,297.12,83,20,1.03,KH,1733009457
356,sedalia,38.7045,-93.2283,273.99,86,100,4.12,US,1733009458
357,saint-paul,-21.0096,55.2707,296.2,76,88,0.36,RE,1733009459
358,kampong speu,11.5,104.3333,294.6,77,66,1.82,KH,1733009460
359,road town,18.4167,-64.6167,300.17,74,20,2.57,VG,1733009336
360,primorsk,46.7348,36.3443,273.9,74,61,4.63,UA,1733009463
361,san lawrenz,36.0553,14.204,286.96,59,4,9.59,MT,1733009464
362,rusape,-18.5278,32.1284,286.01,72,54,1.4,ZW,1733009465
363,saldanha,-33.0117,17.9442,289.18,85,7,8.03,ZA,1733009466
364,greenland,43.0362,-70.8328,274.82,67,51,0.89,US,1733009286
365,sienna plantation,29.4861,-95.508,289.27,75,100,2.57,US,1733009470
366,lubbock,33.6001,-101.8338,286.29,24,75,2.57,US,1733009471
367,vernon,50.2581,-119.2691,276.73,75,100,2.68,CA,1733009402
368,phan thiet,10.9333,108.1,296.79,83,100,1.07,VN,1733009201
369,labasa,-16.4167,179.3833,299.32,84,100,3.29,FJ,1733009474
370,kunming,25.0389,102.7183,280.11,93,75,6.0,CN,1733009475
371,kununurra,-15.7667,128.7333,304.14,70,77,3.09,AU,1733009477
372,luanda,-8.8368,13.2343,299.15,83,75,2.57,AO,1733009247
373,lappeenranta,61.0587,28.1887,278.18,87,100,5.66,FI,1733009479
374,san luis de la loma,17.2706,-100.8939,299.39,80,13,2.88,MX,1733009480
375,midvagur,62.0511,-7.1939,283.61,93,100,6.69,FO,1733009481
376,eilat,29.5581,34.9482,287.06,51,0,5.14,IL,1733009483
377,villa la venta,18.1,-94.05,296.33,90,41,4.29,MX,1733009484
378,vila velha,-20.3297,-40.2925,299.12,94,100,1.79,BR,1733009294
379,kayyerkan,69.3786,87.7439,263.52,66,100,8.86,RU,1733009488
380,dalbandin,28.8947,64.4101,289.67,44,70,4.0,PK,1733009490
381,tolanaro,-25.0319,46.9987,294.19,88,40,2.06,MG,1733009491
382,harstad,68.799,16.5293,271.01,95,100,5.36,NO,1733009493
383,ghadamis,30.1337,9.5007,286.92,42,100,2.71,LY,1733009494
384,tamandare,-8.7597,-35.1047,297.29,76,72,3.94,BR,1733009495
385,nagqu,31.5,92.0,264.15,46,38,1.27,CN,1733009496
386,champerico,14.3,-91.9167,299.36,69,4,1.86,GT,1733009497
387,virar,19.4667,72.8,294.16,44,40,2.13,IN,1733009498
388,crane,31.3974,-102.3501,286.84,34,100,1.85,US,1733009499
389,kolda,12.8833,-14.95,293.32,94,0,0.0,SN,1733009500
390,mount pearl,47.5166,-52.7813,276.66,96,100,3.09,CA,1733009502
391,tocopilla,-22.092,-70.1979,292.55,80,71,3.63,CL,1733009503
392,obo,5.3998,26.4869,293.43,43,62,1.48,CF,1733009504
393,vorkuta,67.5,64.0,264.67,95,100,4.46,RU,1733009505
394,nantucket,41.2835,-70.0995,277.21,45,75,7.2,US,1733009506
395,kangaba,11.9333,-8.4167,293.49,25,0,2.45,ML,1733009507
396,tuy hoa,13.0833,109.3,295.25,87,100,1.11,VN,1733009510
397,kemi,65.8596,24.8228,268.02,93,100,2.57,FI,1733009511
398,ke-macina,13.9623,-5.3572,295.17,16,32,3.78,ML,1733009512
399,abepura,-2.6333,140.5833,301.6,79,20,1.54,ID,1733009513
400,izki,22.9333,57.7667,292.93,64,0,0.34,OM,1733009514
401,lae,-6.7221,146.9847,301.66,62,100,1.46,PG,1733009515
402,nizhnesortymskiy,62.4397,71.7603,265.26,94,98,6.94,RU,1733009517
403,sal rei,16.1833,-22.9167,298.37,74,8,6.22,CV,1733009518
404,mitu,1.1983,-70.1733,297.03,93,67,0.82,CO,1733009520
405,antofagasta,-23.65,-70.4,290.75,85,52,3.25,CL,1733009401
406,nouadhibou,20.931,-17.0347,295.14,49,48,4.12,MR,1733009522
407,kingsbridge,50.2845,-3.7764,286.27,93,100,8.53,GB,1733009523
408,sandakan,5.8402,118.1179,297.97,94,20,2.68,MY,1733009524
409,labytnangi,66.6572,66.4183,263.44,87,100,4.16,RU,1733009525
410,johi,26.6921,67.6133,293.91,33,0,0.24,PK,1733009527
411,dawei,14.0833,98.2,293.17,73,94,2.15,MM,1733009528
412,poronaysk,49.2167,143.1167,271.47,76,17,4.21,RU,1733009530
413,polyarnyy,69.1989,33.4478,265.88,87,88,8.19,RU,1733009531
414,mogadishu,2.0371,45.3438,299.31,78,55,7.08,SO,1733009534
415,olavarria,-36.8927,-60.3225,294.96,40,26,3.97,AR,1733009304
416,giyani,-23.3025,30.7187,293.0,54,0,0.92,ZA,1733009536
417,fisterra,42.9049,-9.2629,289.28,93,100,8.55,ES,1733009537
418,la'ie,21.6477,-157.9253,302.07,63,28,3.66,US,1733009538
419,bardai,11.65,7.2333,291.26,28,77,4.0,NG,1733009539
420,komarichi,52.4151,34.7905,269.01,98,81,2.03,RU,1733009540
421,bagepalli,13.7847,77.7931,293.54,95,100,3.22,IN,1733009542
422,mugia,43.1041,-9.2179,289.3,92,100,8.05,ES,1733009543
423,jawf al maqbabah,13.8378,45.8349,293.41,69,10,0.72,YE,1733009544
424,sao joao da barra,-21.6403,-41.0511,297.5,91,100,4.73,BR,1733009317
425,brisas de zicatela,15.8369,-97.0419,298.56,65,1,0.83,MX,1733009546
426,cooper's town,26.8667,-77.5167,294.98,82,100,9.8,BS,1733009547
427,mao,39.8885,4.2658,285.46,87,20,0.51,ES,1733009548
428,ust'-kut,56.7938,105.7672,242.22,100,100,0.77,RU,1733009549
429,mairi,-11.7114,-40.1489,299.28,52,91,6.58,BR,1733009551
430,babayevo,59.3936,35.9371,274.8,98,100,5.24,RU,1733009552
431,sungjibaegam,41.2428,128.7989,265.37,38,53,0.89,KP,1733009553
432,kassala,15.451,36.4,296.68,62,2,3.09,SD,1733009554
433,dubbo,-32.25,148.6167,298.22,73,75,5.14,AU,1733009555
434,cabadbaran,9.1236,125.5344,300.41,84,99,2.12,PH,1733009556
435,ciudad lazaro cardenas,17.9583,-102.2,300.01,75,0,4.28,MX,1733009557
436,arkhangel'sk,64.5401,40.5433,267.21,93,20,3.0,RU,1733009559
437,labrador city,52.9463,-66.9114,267.69,88,100,7.2,CA,1733009560
438,maceio,-9.6658,-35.7353,297.84,83,20,2.57,BR,1733009322
439,afaahiti,-17.75,-149.2833,299.25,78,59,3.16,PF,1733009562
440,nezhinka,51.7676,55.3694,272.24,86,100,3.0,RU,1733009563
441,vilhena,-12.7406,-60.1458,297.27,83,75,2.06,BR,1733009564
442,kaliua,-5.0606,31.7936,291.23,97,100,1.31,TZ,1733009565
443,essaouira,31.5125,-9.77,291.87,34,64,2.06,MA,1733009566
444,wustenrot,49.0808,9.4606,271.64,89,11,1.59,DE,1733009568
445,rosetta,31.4044,30.4164,289.1,75,12,1.88,EG,1733009569
446,mildura,-34.2,142.15,294.3,71,44,6.46,AU,1733009505
447,palopo,-2.9996,120.1921,298.12,94,100,0.55,ID,1733009572
448,hilton,43.2881,-77.7933,271.99,81,97,7.15,US,1733009573
449,jayapura,-2.5333,140.7,301.81,69,100,1.12,ID,1733009575
450,camrose,53.0168,-112.8353,255.88,73,100,1.49,CA,1733009576
451,eureka,40.8021,-124.1637,286.07,69,79,0.89,US,1733009577
452,ellsworth,44.5434,-68.4195,275.11,76,100,2.06,US,1733009578
453,nar'yan-mar,67.6713,53.087,266.93,86,60,10.6,RU,1733009579
454,lagonegro,40.1283,15.7615,277.08,86,88,3.0,IT,1733009580
455,colares,38.7992,-9.4469,291.67,79,100,5.01,PT,1733009581
456,karratha,-20.7377,116.8463,301.35,65,44,6.17,AU,1733009583
457,bandarbeyla,9.4942,50.8122,298.61,73,37,6.73,SO,1733009584
458,yuzhno-kurilsk,44.0306,145.8556,276.36,68,72,8.91,RU,1733009585
459,as suwayrah,32.9256,44.7758,284.04,41,0,4.61,IQ,1733009586
460,karben,50.2302,8.7716,275.57,91,65,0.86,DE,1733009587
461,seaside,36.6111,-121.8516,294.49,64,0,8.05,US,1733009588
462,ndago,-4.6,34.35,290.49,79,97,0.86,TZ,1733009589
463,bucaramanga,7.1254,-73.1198,296.88,88,75,3.09,CO,1733009591
464,vila franca do campo,37.7167,-25.4333,291.42,99,77,3.36,PT,1733009592
465,kismayo,-0.3582,42.5454,299.99,83,7,3.83,SO,1733009593
466,filingue,14.3521,3.3168,293.35,17,67,4.16,NE,1733009594
467,yarmouth,41.7057,-70.2286,276.46,57,100,9.39,US,1733009595
468,noumea,-22.2763,166.4572,302.59,99,16,7.3,NC,1733009596
469,piti village,13.4626,144.6933,302.76,85,40,5.14,GU,1733009597
470,lubuklinggau,-3.3,102.8667,296.51,89,100,0.5,ID,1733009599
471,keflavik,64.0049,-22.5624,269.39,74,40,14.4,IS,1733009600
472,inongo,-1.95,18.2667,295.05,92,98,1.09,CD,1733009601
473,la passe,45.5549,-0.8967,284.47,85,80,4.9,FR,1733009602
474,east london,-33.0153,27.9116,291.76,80,86,0.85,ZA,1733009603
475,shimoda,34.6667,138.95,285.21,64,6,0.6,JP,1733009604
476,bishkek,42.87,74.59,276.26,88,100,1.85,KG,1733009606
477,mount pleasant,32.7941,-79.8626,280.23,70,0,0.0,US,1733009608
478,port antonio,18.18,-76.4612,298.83,88,29,2.55,JM,1733009609
479,gornozavodsk,58.3758,58.3211,270.25,94,99,4.37,RU,1733009611
480,onguday,50.75,86.15,267.11,96,46,1.12,RU,1733009613
481,amga,60.8953,131.9608,251.85,99,100,1.19,RU,1733009614
482,khenchela,35.4358,7.1433,281.05,86,1,1.03,DZ,1733009615
483,paita,-5.0892,-81.1144,293.61,84,71,7.27,PE,1733009617
484,taoudenni,22.6783,-3.9836,292.18,19,50,4.96,ML,1733009618
485,kasserine,35.1676,8.8365,283.1,91,22,1.75,TN,1733009619
486,ende,-8.8432,121.6623,301.86,69,100,1.36,ID,1733009620
487,rio preto da eva,-2.6994,-59.6997,302.45,39,73,0.82,BR,1733009621
488,pyetrykaw,52.1289,28.4921,274.49,93,80,1.41,BY,1733009625
489,ibshaway,29.358,30.6814,288.02,71,0,4.14,EG,1733009626
490,happy valley-goose bay,53.3168,-60.3315,272.32,86,40,3.6,CA,1733009627
491,turbat,26.0023,63.044,294.2,63,0,1.63,PK,1733009628
492,kavaratti,10.5669,72.642,300.32,71,100,5.83,IN,1733009629
493,as samawah,31.332,45.2944,286.28,46,16,4.5,IQ,1733009630
494,kalush,49.0119,24.3731,275.11,98,82,2.15,UA,1733009632
495,ormara,25.2088,64.6357,299.29,53,0,2.72,PK,1733009633
496,fort stockton,30.894,-102.8793,291.18,26,0,3.6,US,1733009634
497,fuerte olimpo,-21.0415,-57.8738,304.61,49,100,2.28,PY,1733009635
498,cifteler,39.3831,31.0392,275.63,79,36,2.06,TR,1733009636
499,gorodovikovsk,46.0878,41.9335,272.94,88,92,2.83,RU,1733009637
500,barah,13.7,30.3667,289.45,29,2,4.42,SD,1733009639
501,phultala,22.7,89.5167,291.88,65,95,2.23,BD,1733009640
502,maputo,-25.9653,32.5892,293.97,83,0,1.54,MZ,1733009641
503,abengourou,6.7297,-3.4964,293.43,62,6,0.8,CI,1733009642
504,taksimo,56.3444,114.8794,251.22,86,100,3.27,RU,1733009644
505,nizhnyaya tura,58.6293,59.8118,269.52,87,17,3.48,RU,1733009645
506,nova vicosa,-17.8919,-39.3719,298.82,80,85,6.72,BR,1733009646
507,alesund,62.4723,6.1549,284.23,82,100,7.72,NO,1733009647
508,savanna-la-mar,18.219,-78.1332,299.78,89,37,0.9,JM,1733009648
509,fuquay-varina,35.5843,-78.8,276.42,53,3,0.45,US,1733009649
510,klaksvik,62.2266,-6.589,282.31,97,100,16.18,FO,1733009650
511,fort irwin,35.2627,-116.6848,289.89,14,0,2.06,US,1733009651
512,el granada,37.5027,-122.4694,290.47,58,0,2.06,US,1733009652
513,gorna oryahovitsa,43.1278,25.7017,282.73,76,75,7.72,BG,1733009654
514,mansalay,12.5167,121.4,297.61,84,96,4.69,PH,1733009655
515,zouerate,22.7187,-12.4521,294.8,18,100,3.54,MR,1733009656
516,plastun,44.7561,136.2939,267.86,56,0,4.15,RU,1733009657
517,aral,40.5156,81.2636,272.8,43,75,1.75,CN,1733009658
518,humen,22.819,113.6731,289.1,49,63,2.12,CN,1733009659
519,pariaman,-0.619,100.12,296.18,79,81,1.41,ID,1733009660
520,la ronge,55.1001,-105.2842,251.29,84,75,0.0,CA,1733009661
521,geneina,13.45,22.45,289.26,26,2,5.86,SD,1733009663
522,weinstadt-endersbach,48.8131,9.3639,273.83,88,7,1.03,DE,1733009664
523,port augusta,-32.5,137.7667,295.85,35,0,2.38,AU,1733009444
524,cidreira,-30.1811,-50.2056,293.71,83,38,4.66,BR,1733009666
525,oranjemund,-28.55,16.4333,288.55,93,8,7.54,NA,1733009667
526,smithers,54.7804,-127.1743,268.33,86,100,2.06,CA,1733009670
527,jiujiang,29.7333,115.9833,285.32,51,0,1.33,CN,1733009672
528,andreyevo,55.9465,41.1505,272.96,88,100,2.91,RU,1733009673
529,griffith,41.5284,-87.4237,267.35,62,0,5.14,US,1733009674
530,hami,42.8,93.45,269.1,76,100,2.04,CN,1733009675
531,acarau,-2.8856,-40.12,299.7,82,79,7.76,BR,1733009677
532,palmeira,-25.4294,-50.0064,293.31,91,89,4.55,BR,1733009678
533,bei'an,46.4398,126.2373,261.28,92,59,3.67,CN,1733009679
534,alaghsas,17.0187,8.0168,291.7,19,78,6.47,NE,1733009680
535,sandefjord,59.1312,10.2167,282.6,99,100,6.69,NO,1733009681
536,bani walid,31.7566,13.9942,289.09,72,37,4.46,LY,1733009682
537,coquimbo,-29.9533,-71.3436,289.0,73,20,4.63,CL,1733009519
538,alamogordo,32.8995,-105.9603,288.74,14,0,3.09,US,1733009684
539,port saint john's,-31.6229,29.5448,291.65,92,32,1.07,ZA,1733009656
540,qamdo,31.1667,97.2333,265.16,51,16,0.54,CN,1733009687
541,glen innes,-29.7333,151.7333,295.09,67,78,3.83,AU,1733009688
542,carutapera,-1.195,-46.02,299.69,79,15,3.36,BR,1733009689
543,gaalkacyo,6.7697,47.4308,296.21,51,41,2.72,SO,1733009690
544,pacific grove,36.6177,-121.9166,294.21,67,0,8.49,US,1733009591
545,glendive,47.1053,-104.7125,263.94,85,100,3.6,US,1733009693
546,berdigestyakh,62.0989,126.6992,249.9,96,100,3.06,RU,1733009695
547,pontes e lacerda,-15.2261,-59.3353,296.83,95,100,1.08,BR,1733009697
548,olyokminsk,60.3736,120.4264,250.34,93,100,2.38,RU,1733009698
549,veraval,20.9,70.3667,293.62,39,3,5.6,IN,1733009699
550,atherton,53.5237,-2.4935,287.2,93,89,2.24,GB,1733009700
551,nuuk,64.1835,-51.7216,271.49,59,100,5.66,GL,1733009701
552,mabaruma,8.2,-59.7833,296.72,98,3,1.19,GY,1733009702
553,wau,7.7029,27.9953,295.46,31,41,2.06,SS,1733009704
554,birnin kudu,11.4459,9.4984,291.84,27,79,3.06,NG,1733009705
555,pandan,14.0453,124.1694,298.84,98,100,10.31,PH,1733009706
556,pasni,25.2631,63.471,294.91,58,0,1.57,PK,1733009707
557,kuala belait,4.5833,114.1833,298.92,82,100,1.21,BN,1733009708
558,sarina,-21.4333,149.2167,303.3,1,28,2.27,AU,1733009710
559,soio,-6.1349,12.3689,299.4,82,100,3.66,AO,1733009711
560,sefwi wiawso,6.2044,-2.4886,294.58,84,22,0.73,GH,1733009712
561,mukachevo,48.4419,22.7179,277.27,83,6,1.94,UA,1733009713
562,tabou,4.423,-7.3528,297.78,91,1,1.03,CI,1733009714
563,sinan,34.8262,126.1086,284.85,59,100,3.29,KR,1733009715
564,kilindoni,-7.9139,39.6668,297.67,86,100,5.81,TZ,1733009716
565,cidade velha,14.9167,-23.6167,297.41,83,0,6.17,CV,1733009718
566,touros,-5.1989,-35.4608,298.39,77,45,4.72,BR,1733009719
567,trairi,-3.2778,-39.2689,299.41,80,27,5.22,BR,1733009532
568,kudahuvadhoo,2.6708,72.8944,301.04,69,50,8.96,MV,1733009721
569,monrovia,6.3005,-10.7969,299.83,81,19,2.2,LR,1733009722
570,richfield,44.8833,-93.283,263.47,60,0,6.69,US,1733009613
